[{"category": "Derechos y Empoderamiento Pol\u00edtico ", "name": "Asylum Access", "telephone": "+593 (2)2555204, +593 (2) 2540759, +593 (2) 6046878", "longitude": -78.4975076, "site": "http://asylumaccess.org/program/ecuador/", "address": "Calle Robles E2-08 y Pedro de Valdivia", "latitude": -0.2042498}, {"category": "Legal ", "name": "Centro de Equidad y Justicia Eloy Alfaro", "telephone": "+593 (2) 3110802, +593 (2) 3110805 ext. 456, 457 y 454", "longitude": -78.5257914, "site": "http://www.funcionjudicial.gob.ec/", "address": "Av. Alonso de \u00c1mgulo y Cap. C\u00e9sar Chiriboga", "latitude": -0.2479393}, {"category": "Educaci\u00f3n y Capacitaci\u00f3n", "name": "Escuela Mujeres de Frente ", "telephone": "+593 096-887-5197, +593 097-929-7721", "longitude": -78.510924, "site": "https://escuelamujeresdefrente.wordpress.com/", "address": "Olmedo OE 13-18 y Guayaquil ", "latitude": -0.2240819}, {"category": "Derechos y Empoderamiento Pol\u00edtico ", "name": "Fundaci\u00f3n Ecuatoriana Equidad", "telephone": "+593 022-222-385", "longitude": -78.526245, "site": "http://www.equidadecuador.org/index.html", "address": "Av. 6 de Diciembre N24-253 y Lizardo Garcia", "latitude": -0.2240336}, {"category": "Derechos y Empoderamiento Pol\u00edtico ", "name": "Fundaci\u00f3n Esquel", "telephone": "+5932520001", "longitude": -78.4940616, "site": "http://www.esquel.org.ec/", "address": "Av. Col\u00f3n E4-175 entre Amazonas y Foch, Ed. Torres de la Col\u00f3n, Mezzanine Of. 12", "latitude": -0.1996435}]